{
  "type": "FeatureCollection",
  "features": [
    {
      "type": "Feature",
      "geometry": {
        "type": "Point",
        "coordinates": [
          -6.008674,
          37.384642
        ]
      },
      "properties": {
        "orden": 1,
        "tiempo": "0:06:00",
        "codigo": 41007357,
        "nombre": "I.E.S. Vicente Aleixandre",
        "direccion": "C/ San Vicente de Paúl, 5",
        "codPostal": 41010,
        "municipio": "Sevilla",
        "provincia": "Sevilla"
      }
    },
    {
      "type": "Feature",
      "geometry": {
        "type": "Point",
        "coordinates": [
          -6.006958,
          37.382333
        ]
      },
      "properties": {
        "orden": 2,
        "tiempo": "0:05:00",
        "codigo": 41700041,
        "nombre": "I.E.S. Triana",
        "direccion": "C/ San Jacinto, 79",
        "codPostal": 41010,
        "municipio": "Sevilla",
        "provincia": "Sevilla"
      }
    },
    {
      "type": "Feature",
      "geometry": {
        "type": "Point",
        "coordinates": [
          -6.011957,
          37.3691
        ]
      },
      "properties": {
        "orden": 3,
        "tiempo": "0:07:00",
        "codigo": 41007230,
        "nombre": "I.E.S. Carlos Haya",
        "direccion": "C/ Barberán y Collar, s/n",
        "codPostal": 41011,
        "municipio": "Sevilla",
        "provincia": "Sevilla"
      }
    },
    {
      "type": "Feature",
      "geometry": {
        "type": "Point",
        "coordinates": [
          -5.992079,
          37.377726
        ]
      },
      "properties": {
        "orden": 4,
        "tiempo": "0:09:00",
        "codigo": 41007266,
        "nombre": "E.A. Sevilla",
        "direccion": "Avda. de Chile, s/n. Pabellón de Chile",
        "codPostal": 41013,
        "municipio": "Sevilla",
        "provincia": "Sevilla"
      }
    },
    {
      "type": "Feature",
      "geometry": {
        "type": "Point",
        "coordinates": [
          -6.001,
          37.375636
        ]
      },
      "properties": {
        "orden": 5,
        "tiempo": "0:10:00",
        "codigo": 41006997,
        "nombre": "I.E.S. Politécnico",
        "direccion": "C/ Virgen de la Victoria, 48",
        "codPostal": 41011,
        "municipio": "Sevilla",
        "provincia": "Sevilla"
      }
    },
    {
      "type": "Feature",
      "geometry": {
        "type": "Point",
        "coordinates": [
          -5.98594,
          37.365998
        ]
      },
      "properties": {
        "orden": 6,
        "tiempo": "0:11:00",
        "codigo": 41006924,
        "nombre": "I.E.S. Fernando de Herrera",
        "direccion": "Avda. de la Palmera, 20",
        "codPostal": 41012,
        "municipio": "Sevilla",
        "provincia": "Sevilla"
      }
    },
    {
      "type": "Feature",
      "geometry": {
        "type": "Point",
        "coordinates": [
          -6.044734,
          37.353989
        ]
      },
      "properties": {
        "orden": 7,
        "tiempo": "0:11:00",
        "codigo": 41700351,
        "nombre": "I.E.S. Atenea",
        "direccion": "C/ Ítaca, 2",
        "codPostal": 41927,
        "municipio": "Mairena del Aljarafe",
        "provincia": "Sevilla"
      }
    },
    {
      "type": "Feature",
      "geometry": {
        "type": "Point",
        "coordinates": [
          -6.030529,
          37.397454
        ]
      },
      "properties": {
        "orden": 8,
        "tiempo": "0:13:00",
        "codigo": 41000880,
        "nombre": "I.E.S. Tartessos",
        "direccion": "Bda. Hiconsa, s/n",
        "codPostal": 41900,
        "municipio": "Camas",
        "provincia": "Sevilla"
      }
    },
    {
      "type": "Feature",
      "geometry": {
        "type": "Point",
        "coordinates": [
          -6.061196,
          37.341808
        ]
      },
      "properties": {
        "orden": 9,
        "tiempo": "0:13:00",
        "codigo": 41011713,
        "nombre": "I.E.S. Hipatia",
        "direccion": "Cmo.  del Jardinillo, s/n",
        "codPostal": 41927,
        "municipio": "Mairena del Aljarafe",
        "provincia": "Sevilla"
      }
    },
    {
      "type": "Feature",
      "geometry": {
        "type": "Point",
        "coordinates": [
          -6.043028,
          37.431497
        ]
      },
      "properties": {
        "orden": 10,
        "tiempo": "0:14:00",
        "codigo": 41701419,
        "nombre": "I.E.S. Itálica",
        "direccion": "C/ TIERNO GALVÁN, S/N",
        "codPostal": 41970,
        "municipio": "Santiponce",
        "provincia": "Sevilla"
      }
    },
    {
      "type": "Feature",
      "geometry": {
        "type": "Point",
        "coordinates": [
          -6.076727,
          37.371999
        ]
      },
      "properties": {
        "orden": 11,
        "tiempo": "0:15:00",
        "codigo": 41011464,
        "nombre": "I.E.S. Juan Ciudad Duarte",
        "direccion": "Ctra. de Gines, s/n",
        "codPostal": 41930,
        "municipio": "Bormujos",
        "provincia": "Sevilla"
      }
    },
    {
      "type": "Feature",
      "geometry": {
        "type": "Point",
        "coordinates": [
          -5.969109,
          37.373936
        ]
      },
      "properties": {
        "orden": 12,
        "tiempo": "0:16:00",
        "codigo": 41010769,
        "nombre": "I.E.S. Nervión",
        "direccion": "C/ Profesor Buenaventura Pinillos, s/n",
        "codPostal": 41005,
        "municipio": "Sevilla",
        "provincia": "Sevilla"
      }
    },
    {
      "type": "Feature",
      "geometry": {
        "type": "Point",
        "coordinates": [
          -6.069474,
          37.368247
        ]
      },
      "properties": {
        "orden": 13,
        "tiempo": "0:16:00",
        "codigo": 41701821,
        "nombre": "I.E.S. Los Álamos",
        "direccion": "C/ Clara Campoamor, s/n",
        "codPostal": 41930,
        "municipio": "Bormujos",
        "provincia": "Sevilla"
      }
    },
    {
      "type": "Feature",
      "geometry": {
        "type": "Point",
        "coordinates": [
          -5.977619,
          37.394492
        ]
      },
      "properties": {
        "orden": 14,
        "tiempo": "0:17:00",
        "codigo": 41700403,
        "nombre": "I.E.S. Isbilya",
        "direccion": "C/ Esperanza de la Trinidad, 7",
        "codPostal": 41003,
        "municipio": "Sevilla",
        "provincia": "Sevilla"
      }
    },
    {
      "type": "Feature",
      "geometry": {
        "type": "Point",
        "coordinates": [
          -5.974127,
          37.398221
        ]
      },
      "properties": {
        "orden": 15,
        "tiempo": "0:18:00",
        "codigo": 41009071,
        "nombre": "I.E.S. Antonio Machado",
        "direccion": "C/ Arroyo, 80",
        "codPostal": 41008,
        "municipio": "Sevilla",
        "provincia": "Sevilla"
      }
    },
    {
      "type": "Feature",
      "geometry": {
        "type": "Point",
        "coordinates": [
          -5.971525,
          37.404268
        ]
      },
      "properties": {
        "orden": 16,
        "tiempo": "0:18:00",
        "codigo": 41700117,
        "nombre": "I.E.S. Llanes",
        "direccion": "C/ Escultor Francisco Buiza, s/n",
        "codPostal": 41008,
        "municipio": "Sevilla",
        "provincia": "Sevilla"
      }
    },
    {
      "type": "Feature",
      "geometry": {
        "type": "Point",
        "coordinates": [
          -5.977689,
          37.385682
        ]
      },
      "properties": {
        "orden": 17,
        "tiempo": "0:19:00",
        "codigo": 41006951,
        "nombre": "I.E.S. Luca de Tena",
        "direccion": "C/ Pirineos, 17",
        "codPostal": 41005,
        "municipio": "Sevilla",
        "provincia": "Sevilla"
      }
    },
    {
      "type": "Feature",
      "geometry": {
        "type": "Point",
        "coordinates": [
          -5.967878,
          37.376869
        ]
      },
      "properties": {
        "orden": 18,
        "tiempo": "0:19:00",
        "codigo": 41009871,
        "nombre": "I.E.S. Beatriz de Suabia",
        "direccion": "C/ Beatriz de Suabia, s/n",
        "codPostal": 41005,
        "municipio": "Sevilla",
        "provincia": "Sevilla"
      }
    },
    {
      "type": "Feature",
      "geometry": {
        "type": "Point",
        "coordinates": [
          -5.939543,
          37.400207
        ]
      },
      "properties": {
        "orden": 19,
        "tiempo": "0:20:00",
        "codigo": 41000089,
        "nombre": "I.E.S. Miguel Servet",
        "direccion": "Paseo Miguel de Unamuno, 8",
        "codPostal": 41020,
        "municipio": "Sevilla",
        "provincia": "Sevilla"
      }
    },
    {
      "type": "Feature",
      "geometry": {
        "type": "Point",
        "coordinates": [
          -6.123499,
          37.379425
        ]
      },
      "properties": {
        "orden": 20,
        "tiempo": "0:20:00",
        "codigo": 41008398,
        "nombre": "I.E.S. Lauretum",
        "direccion": "Avda. de Huelva, s/n",
        "codPostal": 41807,
        "municipio": "Espartinas",
        "provincia": "Sevilla"
      }
    },
    {
      "type": "Feature",
      "geometry": {
        "type": "Point",
        "coordinates": [
          -5.923991,
          37.333006
        ]
      },
      "properties": {
        "orden": 21,
        "tiempo": "0:20:00",
        "codigo": 41011491,
        "nombre": "I.E.S. Galileo Galilei",
        "direccion": "C/ Estrasburgo, s/n. Montequinto",
        "codPostal": 41089,
        "municipio": "Dos Hermanas",
        "provincia": "Sevilla"
      }
    },
    {
      "type": "Feature",
      "geometry": {
        "type": "Point",
        "coordinates": [
          -5.935535,
          37.341571
        ]
      },
      "properties": {
        "orden": 22,
        "tiempo": "0:20:00",
        "codigo": 41701754,
        "nombre": "I.E.S. Mariana de Pineda",
        "direccion": "C/ Mesina, s/n",
        "codPostal": 41089,
        "municipio": "Dos Hermanas",
        "provincia": "Sevilla"
      }
    },
    {
      "type": "Feature",
      "geometry": {
        "type": "Point",
        "coordinates": [
          -5.918187,
          37.394147
        ]
      },
      "properties": {
        "orden": 23,
        "tiempo": "0:21:00",
        "codigo": 41010824,
        "nombre": "I.E.S. Margarita Salas",
        "direccion": "C/ Flor de Papel, s/n",
        "codPostal": 41020,
        "municipio": "Sevilla",
        "provincia": "Sevilla"
      }
    },
    {
      "type": "Feature",
      "geometry": {
        "type": "Point",
        "coordinates": [
          -6.050969,
          37.283894
        ]
      },
      "properties": {
        "orden": 24,
        "tiempo": "0:23:00",
        "codigo": 41001471,
        "nombre": "I.E.S. Caura",
        "direccion": "Otros Cerro de San Juan, s/n",
        "codPostal": 41100,
        "municipio": "Coria del Río",
        "provincia": "Sevilla"
      }
    },
    {
      "type": "Feature",
      "geometry": {
        "type": "Point",
        "coordinates": [
          -5.922253,
          37.399892
        ]
      },
      "properties": {
        "orden": 25,
        "tiempo": "0:23:00",
        "codigo": 41014003,
        "nombre": "I.E.S. Chaves Nogales",
        "direccion": "C/ Doctora Navarro Rodríguez, s/n.",
        "codPostal": 41020,
        "municipio": "Sevilla",
        "provincia": "Sevilla"
      }
    },
    {
      "type": "Feature",
      "geometry": {
        "type": "Point",
        "coordinates": [
          -5.930367,
          37.398214
        ]
      },
      "properties": {
        "orden": 26,
        "tiempo": "0:23:00",
        "codigo": 41700385,
        "nombre": "I.E.S. V Centenario",
        "direccion": "C/ Doctor Miguel Ríos Sarmiento, s/n",
        "codPostal": 41020,
        "municipio": "Sevilla",
        "provincia": "Sevilla"
      }
    },
    {
      "type": "Feature",
      "geometry": {
        "type": "Point",
        "coordinates": [
          -5.930064,
          37.293849
        ]
      },
      "properties": {
        "orden": 27,
        "tiempo": "0:23:00",
        "codigo": 41701869,
        "nombre": "I.E.S. Ibn Jaldún",
        "direccion": "C/ Luis Cernuda, s/n",
        "codPostal": 41700,
        "municipio": "Dos Hermanas",
        "provincia": "Sevilla"
      }
    },
    {
      "type": "Feature",
      "geometry": {
        "type": "Point",
        "coordinates": [
          -5.924766,
          37.293579
        ]
      },
      "properties": {
        "orden": 28,
        "tiempo": "0:24:00",
        "codigo": 41001707,
        "nombre": "I.E.S. Virgen de Valme",
        "direccion": "Avda. Ramón y Cajal, s/n",
        "codPostal": 41700,
        "municipio": "Dos Hermanas",
        "provincia": "Sevilla"
      }
    },
    {
      "type": "Feature",
      "geometry": {
        "type": "Point",
        "coordinates": [
          -5.941887,
          37.490932
        ]
      },
      "properties": {
        "orden": 29,
        "tiempo": "0:24:00",
        "codigo": 41701766,
        "nombre": "I.E.S. Carmen Laffón",
        "direccion": "C/ Alcalde Pepe Iglesias, s/n",
        "codPostal": 41300,
        "municipio": "La Rinconada",
        "provincia": "Sevilla"
      }
    },
    {
      "type": "Feature",
      "geometry": {
        "type": "Point",
        "coordinates": [
          -5.83197,
          37.3414
        ]
      },
      "properties": {
        "orden": 30,
        "tiempo": "0:26:00",
        "codigo": 41000284,
        "nombre": "I.E.S. Al-Guadaira",
        "direccion": "Avda. 28 de Febrero, s/n",
        "codPostal": 41500,
        "municipio": "Alcalá de Guadaíra",
        "provincia": "Sevilla"
      }
    },
    {
      "type": "Feature",
      "geometry": {
        "type": "Point",
        "coordinates": [
          -5.910408,
          37.282308
        ]
      },
      "properties": {
        "orden": 31,
        "tiempo": "0:26:00",
        "codigo": 41700877,
        "nombre": "I.E.S. Vistazul",
        "direccion": "C/ Gabriel García Márquez, s/n. Apdo. correos 460",
        "codPostal": 41700,
        "municipio": "Dos Hermanas",
        "provincia": "Sevilla"
      }
    },
    {
      "type": "Feature",
      "geometry": {
        "type": "Point",
        "coordinates": [
          -5.980823,
          37.521591
        ]
      },
      "properties": {
        "orden": 32,
        "tiempo": "0:27:00",
        "codigo": 41011002,
        "nombre": "I.E.S. Ilipa Magna",
        "direccion": "Avda. de Andalucía, s/n",
        "codPostal": 41200,
        "municipio": "Alcalá del Río",
        "provincia": "Sevilla"
      }
    },
    {
      "type": "Feature",
      "geometry": {
        "type": "Point",
        "coordinates": [
          -6.150418,
          37.397706
        ]
      },
      "properties": {
        "orden": 33,
        "tiempo": "0:28:00",
        "codigo": 41701638,
        "nombre": "I.E.S. Al-Iscar",
        "direccion": "C/ Lagar, s/n",
        "codPostal": 41808,
        "municipio": "Villanueva del Ariscal",
        "provincia": "Sevilla"
      }
    },
    {
      "type": "Feature",
      "geometry": {
        "type": "Point",
        "coordinates": [
          -6.208295,
          37.390823
        ]
      },
      "properties": {
        "orden": 34,
        "tiempo": "0:28:00",
        "codigo": 41701778,
        "nombre": "I.E.S. Lucus Solis",
        "direccion": "C/ Juan Antonio Santero, 2",
        "codPostal": 41800,
        "municipio": "Sanlúcar la Mayor",
        "provincia": "Sevilla"
      }
    },
    {
      "type": "Feature",
      "geometry": {
        "type": "Point",
        "coordinates": [
          -5.931517,
          37.166541
        ]
      },
      "properties": {
        "orden": 35,
        "tiempo": "0:30:00",
        "codigo": 41008994,
        "nombre": "I.E.S. Maestro Diego Llorente",
        "direccion": "Ctra. del Monte, 1",
        "codPostal": 41720,
        "municipio": "Los Palacios y Villafranca",
        "provincia": "Sevilla"
      }
    },
    {
      "type": "Feature",
      "geometry": {
        "type": "Point",
        "coordinates": [
          -5.841903,
          37.333633
        ]
      },
      "properties": {
        "orden": 36,
        "tiempo": "0:30:00",
        "codigo": 41700105,
        "nombre": "I.E.S. Albero",
        "direccion": "Avda. Tren de los Panaderos, 13",
        "codPostal": 41500,
        "municipio": "Alcalá de Guadaíra",
        "provincia": "Sevilla"
      }
    },
    {
      "type": "Feature",
      "geometry": {
        "type": "Point",
        "coordinates": [
          -5.779238,
          37.193433
        ]
      },
      "properties": {
        "orden": 37,
        "tiempo": "0:32:00",
        "codigo": 41700154,
        "nombre": "I.E.S. Ponce de León",
        "direccion": "C/ Constelación Pavo Real, s/n",
        "codPostal": 41710,
        "municipio": "Utrera",
        "provincia": "Sevilla"
      }
    },
    {
      "type": "Feature",
      "geometry": {
        "type": "Point",
        "coordinates": [
          -5.770757,
          37.189485
        ]
      },
      "properties": {
        "orden": 38,
        "tiempo": "0:36:00",
        "codigo": 41007904,
        "nombre": "I.E.S. Virgen de Consolación",
        "direccion": "Paseo de Consolación, s/n",
        "codPostal": 41710,
        "municipio": "Utrera",
        "provincia": "Sevilla"
      }
    },
    {
      "type": "Feature",
      "geometry": {
        "type": "Point",
        "coordinates": [
          -5.650814,
          37.465355
        ]
      },
      "properties": {
        "orden": 39,
        "tiempo": "0:37:00",
        "codigo": 41001094,
        "nombre": "I.E.S. Maese Rodrigo",
        "direccion": "Ctra. de Alcalá, s/n",
        "codPostal": 41410,
        "municipio": "Carmona",
        "provincia": "Sevilla"
      }
    },
    {
      "type": "Feature",
      "geometry": {
        "type": "Point",
        "coordinates": [
          -5.652808,
          37.463975
        ]
      },
      "properties": {
        "orden": 40,
        "tiempo": "0:37:00",
        "codigo": 41009585,
        "nombre": "I.E.S. Arrabal",
        "direccion": "C/ Bonifacio IV, s/n",
        "codPostal": 41410,
        "municipio": "Carmona",
        "provincia": "Sevilla"
      }
    },
    {
      "type": "Feature",
      "geometry": {
        "type": "Point",
        "coordinates": [
          -5.728866,
          37.392451
        ]
      },
      "properties": {
        "orden": 41,
        "tiempo": "0:37:00",
        "codigo": 41702138,
        "nombre": "I.E.S. Profesor Juan Bautista",
        "direccion": "C/ Alfonso Lasso de la Vega, s/n",
        "codPostal": 41520,
        "municipio": "El Viso del Alcor",
        "provincia": "Sevilla"
      }
    },
    {
      "type": "Feature",
      "geometry": {
        "type": "Point",
        "coordinates": [
          -5.719038,
          37.395583
        ]
      },
      "properties": {
        "orden": 42,
        "tiempo": "0:38:00",
        "codigo": 41700555,
        "nombre": "I.E.S. Blas Infante",
        "direccion": "C/ Huerto Ponce, s/n",
        "codPostal": 41520,
        "municipio": "El Viso del Alcor",
        "provincia": "Sevilla"
      }
    },
    {
      "type": "Feature",
      "geometry": {
        "type": "Point",
        "coordinates": [
          -6.5518,
          37.38159
        ]
      },
      "properties": {
        "orden": 43,
        "tiempo": "0:39:00",
        "codigo": 21700460,
        "nombre": "I.E.S. La Palma",
        "direccion": "Paseo de los Estudiantes, s/n",
        "codPostal": 21700,
        "municipio": "La Palma del Condado",
        "provincia": "Huelva"
      }
    },
    {
      "type": "Feature",
      "geometry": {
        "type": "Point",
        "coordinates": [
          -6.400785,
          37.416276
        ]
      },
      "properties": {
        "orden": 44,
        "tiempo": "0:44:00",
        "codigo": 21700204,
        "nombre": "I.E.S. Campo de Tejada",
        "direccion": "Avda. Diego Sosa López, 6",
        "codPostal": 21880,
        "municipio": "Paterna del Campo",
        "provincia": "Huelva"
      }
    },
    {
      "type": "Feature",
      "geometry": {
        "type": "Point",
        "coordinates": [
          -6.520557,
          37.267359
        ]
      },
      "properties": {
        "orden": 45,
        "tiempo": "0:46:00",
        "codigo": 21700654,
        "nombre": "I.E.S. Doñana",
        "direccion": "Avda. de la Juventud, s/n",
        "codPostal": 21730,
        "municipio": "Almonte",
        "provincia": "Huelva"
      }
    },
    {
      "type": "Feature",
      "geometry": {
        "type": "Point",
        "coordinates": [
          -5.53993,
          37.267301
        ]
      },
      "properties": {
        "orden": 46,
        "tiempo": "0:46:00",
        "codigo": 41000557,
        "nombre": "I.E.S. Al-Ándalus",
        "direccion": "C/ Dalia, s/n",
        "codPostal": 41600,
        "municipio": "Arahal",
        "provincia": "Sevilla"
      }
    },
    {
      "type": "Feature",
      "geometry": {
        "type": "Point",
        "coordinates": [
          -6.072822,
          36.926292
        ]
      },
      "properties": {
        "orden": 47,
        "tiempo": "0:47:00",
        "codigo": 41702278,
        "nombre": "I.E.S. El Fontanal",
        "direccion": "Avda. Antonio Calvo Ruiz, 17",
        "codPostal": 41740,
        "municipio": "Lebrija",
        "provincia": "Sevilla"
      }
    },
    {
      "type": "Feature",
      "geometry": {
        "type": "Point",
        "coordinates": [
          -6.083196,
          36.922337
        ]
      },
      "properties": {
        "orden": 48,
        "tiempo": "0:49:00",
        "codigo": 41009822,
        "nombre": "I.E.S. Bajo Guadalquivir",
        "direccion": "Avda. Doctor José Viel, 3",
        "codPostal": 41740,
        "municipio": "Lebrija",
        "provincia": "Sevilla"
      }
    },
    {
      "type": "Feature",
      "geometry": {
        "type": "Point",
        "coordinates": [
          -5.416697,
          37.328194
        ]
      },
      "properties": {
        "orden": 49,
        "tiempo": "0:53:00",
        "codigo": 41008507,
        "nombre": "I.E.S. López de Arenas",
        "direccion": "C/ Sevilla, s/n",
        "codPostal": 41620,
        "municipio": "Marchena",
        "provincia": "Sevilla"
      }
    },
    {
      "type": "Feature",
      "geometry": {
        "type": "Point",
        "coordinates": [
          -5.46366,
          37.121334
        ]
      },
      "properties": {
        "orden": 50,
        "tiempo": "0:56:00",
        "codigo": 41002955,
        "nombre": "I.E.S. Fray Bartolomé de las Casas",
        "direccion": "Plaza de la Alameda, s/n",
        "codPostal": 41530,
        "municipio": "Morón de la Frontera",
        "provincia": "Sevilla"
      }
    },
    {
      "type": "Feature",
      "geometry": {
        "type": "Point",
        "coordinates": [
          -5.31395,
          37.228142
        ]
      },
      "properties": {
        "orden": 51,
        "tiempo": "0:56:00",
        "codigo": 41700907,
        "nombre": "I.E.S. Castillo de Luna",
        "direccion": "C/ San Ignacio, s/n",
        "codPostal": 41540,
        "municipio": "La Puebla de Cazalla",
        "provincia": "Sevilla"
      }
    },
    {
      "type": "Feature",
      "geometry": {
        "type": "Point",
        "coordinates": [
          -5.569273,
          36.988953
        ]
      },
      "properties": {
        "orden": 52,
        "tiempo": "0:57:00",
        "codigo": 41701043,
        "nombre": "I.E.S. Castillo de Cote",
        "direccion": "C/ Molino Pintao, 2",
        "codPostal": 41770,
        "municipio": "Montellano",
        "provincia": "Sevilla"
      }
    },
    {
      "type": "Feature",
      "geometry": {
        "type": "Point",
        "coordinates": [
          -6.948541,
          37.263611
        ]
      },
      "properties": {
        "orden": 53,
        "tiempo": "1:01:00",
        "codigo": 21001892,
        "nombre": "I.E.S. La Rábida",
        "direccion": "Avda. Manuel Siurot, 9",
        "codPostal": 21004,
        "municipio": "Huelva",
        "provincia": "Huelva"
      }
    },
    {
      "type": "Feature",
      "geometry": {
        "type": "Point",
        "coordinates": [
          -6.955558,
          37.260528
        ]
      },
      "properties": {
        "orden": 54,
        "tiempo": "1:03:00",
        "codigo": 21700058,
        "nombre": "I.E.S. Pablo Neruda",
        "direccion": "C/ Doctor Rubio, 1",
        "codPostal": 21002,
        "municipio": "Huelva",
        "provincia": "Huelva"
      }
    },
    {
      "type": "Feature",
      "geometry": {
        "type": "Point",
        "coordinates": [
          -6.132216,
          36.691995
        ]
      },
      "properties": {
        "orden": 55,
        "tiempo": "1:04:00",
        "codigo": 11003205,
        "nombre": "I.E.S. Padre Luis Coloma",
        "direccion": "Avda. Alvaro Domecq, 10",
        "codPostal": 11405,
        "municipio": "Jerez de la Frontera",
        "provincia": "Cadiz"
      }
    },
    {
      "type": "Feature",
      "geometry": {
        "type": "Point",
        "coordinates": [
          -6.990287,
          37.277195
        ]
      },
      "properties": {
        "orden": 56,
        "tiempo": "1:04:00",
        "codigo": 21700551,
        "nombre": "I.E.S. Juan Antonio Pérez Mercader",
        "direccion": "Blvar. del Ferrocarril, 2",
        "codPostal": 21120,
        "municipio": "Aljaraque",
        "provincia": "Huelva"
      }
    },
    {
      "type": "Feature",
      "geometry": {
        "type": "Point",
        "coordinates": [
          -5.11199,
          37.241458
        ]
      },
      "properties": {
        "orden": 57,
        "tiempo": "1:06:00",
        "codigo": 41009123,
        "nombre": "I.E.S. Sierra Sur",
        "direccion": "C/ San José de Calasanz, s/n",
        "codPostal": 41640,
        "municipio": "Osuna",
        "provincia": "Sevilla"
      }
    },
    {
      "type": "Feature",
      "geometry": {
        "type": "Point",
        "coordinates": [
          -5.109141,
          37.240502
        ]
      },
      "properties": {
        "orden": 58,
        "tiempo": "1:07:00",
        "codigo": 41003066,
        "nombre": "I.E.S. Francisco Rodríguez Marín",
        "direccion": "Paseo San Arcadio, s/n",
        "codPostal": 41640,
        "municipio": "Osuna",
        "provincia": "Sevilla"
      }
    },
    {
      "type": "Feature",
      "geometry": {
        "type": "Point",
        "coordinates": [
          -5.648255,
          36.862017
        ]
      },
      "properties": {
        "orden": 59,
        "tiempo": "1:08:00",
        "codigo": 11007545,
        "nombre": "I.E.S. Castillo de Matrera",
        "direccion": "C/ Sevilla, 16",
        "codPostal": 11650,
        "municipio": "Villamartín",
        "provincia": "Cadiz"
      }
    },
    {
      "type": "Feature",
      "geometry": {
        "type": "Point",
        "coordinates": [
          -5.07592,
          37.545156
        ]
      },
      "properties": {
        "orden": 60,
        "tiempo": "1:09:00",
        "codigo": 41000594,
        "nombre": "I.E.S. Nicolás Copérnico",
        "direccion": "Avda. Ronda de los Molinos, s/n",
        "codPostal": 41400,
        "municipio": "Écija",
        "provincia": "Sevilla"
      }
    },
    {
      "type": "Feature",
      "geometry": {
        "type": "Point",
        "coordinates": [
          -6.172771,
          36.526122
        ]
      },
      "properties": {
        "orden": 61,
        "tiempo": "1:10:00",
        "codigo": 11700433,
        "nombre": "I.E.S. Profesor Antonio Muro",
        "direccion": "C/ Séneca, s/n",
        "codPostal": 11510,
        "municipio": "Puerto Real",
        "provincia": "Cadiz"
      }
    },
    {
      "type": "Feature",
      "geometry": {
        "type": "Point",
        "coordinates": [
          -6.565246,
          37.894041
        ]
      },
      "properties": {
        "orden": 62,
        "tiempo": "1:11:00",
        "codigo": 21700381,
        "nombre": "I.E.S. San Blas",
        "direccion": "Plaza Doña Elvira Embid, s/n",
        "codPostal": 21200,
        "municipio": "Aracena",
        "provincia": "Huelva"
      }
    },
    {
      "type": "Feature",
      "geometry": {
        "type": "Point",
        "coordinates": [
          -5.817018,
          36.756914
        ]
      },
      "properties": {
        "orden": 63,
        "tiempo": "1:12:00",
        "codigo": 11000711,
        "nombre": "I.E.S. Alminares",
        "direccion": "Avda. de la Constitución, s/n",
        "codPostal": 11630,
        "municipio": "Arcos de la Frontera",
        "provincia": "Cadiz"
      }
    },
    {
      "type": "Feature",
      "geometry": {
        "type": "Point",
        "coordinates": [
          -6.217967,
          36.608599
        ]
      },
      "properties": {
        "orden": 64,
        "tiempo": "1:12:00",
        "codigo": 11700445,
        "nombre": "I.E.S. José Luis Tejada Peluffo",
        "direccion": "Avda. Guardia Civil, 1",
        "codPostal": 11500,
        "municipio": "El Puerto de Santa María",
        "provincia": "Cadiz"
      }
    },
    {
      "type": "Feature",
      "geometry": {
        "type": "Point",
        "coordinates": [
          -6.190469,
          36.469544
        ]
      },
      "properties": {
        "orden": 65,
        "tiempo": "1:16:00",
        "codigo": 11005241,
        "nombre": "I.E.S. Isla de León",
        "direccion": "Ctra. Carraca, s/n",
        "codPostal": 11100,
        "municipio": "San Fernando",
        "provincia": "Cadiz"
      }
    },
    {
      "type": "Feature",
      "geometry": {
        "type": "Point",
        "coordinates": [
          -5.400499,
          36.881234
        ]
      },
      "properties": {
        "orden": 66,
        "tiempo": "1:16:00",
        "codigo": 11006668,
        "nombre": "I.E.S. Fuente Alta",
        "direccion": "Avda. de Andalucía, 61",
        "codPostal": 11680,
        "municipio": "Algodonales",
        "provincia": "Cadiz"
      }
    },
    {
      "type": "Feature",
      "geometry": {
        "type": "Point",
        "coordinates": [
          -6.185389,
          36.480173
        ]
      },
      "properties": {
        "orden": 67,
        "tiempo": "1:17:00",
        "codigo": 11005287,
        "nombre": "I.E.S. Wenceslao Benítez",
        "direccion": "Avda. de la Armada, s/n. Apto. correos 141",
        "codPostal": 11100,
        "municipio": "San Fernando",
        "provincia": "Cadiz"
      }
    },
    {
      "type": "Feature",
      "geometry": {
        "type": "Point",
        "coordinates": [
          -6.360301,
          36.777925
        ]
      },
      "properties": {
        "orden": 68,
        "tiempo": "1:17:00",
        "codigo": 11700615,
        "nombre": "I.E.S. Juan Sebastián Elcano",
        "direccion": "Plaza Escritor Eduardo Mendicuti, s/n",
        "codPostal": 11540,
        "municipio": "Sanlúcar de Barrameda",
        "provincia": "Cadiz"
      }
    },
    {
      "type": "Feature",
      "geometry": {
        "type": "Point",
        "coordinates": [
          -6.191375,
          36.46416
        ]
      },
      "properties": {
        "orden": 69,
        "tiempo": "1:18:00",
        "codigo": 11008239,
        "nombre": "I.E.S. Sancti Petri",
        "direccion": "Polígono La Magdalena, s/n",
        "codPostal": 11100,
        "municipio": "San Fernando",
        "provincia": "Cadiz"
      }
    },
    {
      "type": "Feature",
      "geometry": {
        "type": "Point",
        "coordinates": [
          -7.197319,
          37.25223
        ]
      },
      "properties": {
        "orden": 70,
        "tiempo": "1:18:00",
        "codigo": 21700411,
        "nombre": "I.E.S. El Sur",
        "direccion": "Ctra. de Circunvalación Huelva-Ayamonte",
        "codPostal": 21440,
        "municipio": "Lepe",
        "provincia": "Huelva"
      }
    },
    {
      "type": "Feature",
      "geometry": {
        "type": "Point",
        "coordinates": [
          -6.211331,
          36.459087
        ]
      },
      "properties": {
        "orden": 71,
        "tiempo": "1:19:00",
        "codigo": 11005275,
        "nombre": "I.E.S. Las Salinas",
        "direccion": "Avda. Al-Andalus, s/n",
        "codPostal": 11100,
        "municipio": "San Fernando",
        "provincia": "Cadiz"
      }
    },
    {
      "type": "Feature",
      "geometry": {
        "type": "Point",
        "coordinates": [
          -6.228958,
          36.598242
        ]
      },
      "properties": {
        "orden": 72,
        "tiempo": "1:19:00",
        "codigo": 11008525,
        "nombre": "I.E.S. Santo Domingo",
        "direccion": "C/ Santo Domingo, 29",
        "codPostal": 11500,
        "municipio": "El Puerto de Santa María",
        "provincia": "Cadiz"
      }
    },
    {
      "type": "Feature",
      "geometry": {
        "type": "Point",
        "coordinates": [
          -4.879158,
          37.296166
        ]
      },
      "properties": {
        "orden": 73,
        "tiempo": "1:19:00",
        "codigo": 41008970,
        "nombre": "I.E.S. Aguilar y Cano",
        "direccion": "Otros Camino del Cahiz, 36",
        "codPostal": 41560,
        "municipio": "Estepa",
        "provincia": "Sevilla"
      }
    },
    {
      "type": "Feature",
      "geometry": {
        "type": "Point",
        "coordinates": [
          -5.090361,
          37.070745
        ]
      },
      "properties": {
        "orden": 74,
        "tiempo": "1:19:00",
        "codigo": 41701079,
        "nombre": "I.E.S. Flavio Irnitano",
        "direccion": "C/ Fray Antonio Martín Povea, s/n",
        "codPostal": 41650,
        "municipio": "El Saucejo",
        "provincia": "Sevilla"
      }
    },
    {
      "type": "Feature",
      "geometry": {
        "type": "Point",
        "coordinates": [
          -4.932401,
          37.667798
        ]
      },
      "properties": {
        "orden": 75,
        "tiempo": "1:20:00",
        "codigo": 14700298,
        "nombre": "I.E.S. Nuevas Poblaciones",
        "direccion": "C/ La Salud, 6",
        "codPostal": 14100,
        "municipio": "La Carlota",
        "provincia": "Cordoba"
      }
    },
    {
      "type": "Feature",
      "geometry": {
        "type": "Point",
        "coordinates": [
          -6.209339,
          36.451681
        ]
      },
      "properties": {
        "orden": 76,
        "tiempo": "1:21:00",
        "codigo": 11700147,
        "nombre": "I.E.S. La Bahía",
        "direccion": "Avda. Constitución, s/n",
        "codPostal": 11100,
        "municipio": "San Fernando",
        "provincia": "Cadiz"
      }
    },
    {
      "type": "Feature",
      "geometry": {
        "type": "Point",
        "coordinates": [
          -4.880956,
          37.284945
        ]
      },
      "properties": {
        "orden": 77,
        "tiempo": "1:21:00",
        "codigo": 41002013,
        "nombre": "I.E.S. Ostippo",
        "direccion": "Ctra. de Becerrero, 3",
        "codPostal": 41560,
        "municipio": "Estepa",
        "provincia": "Sevilla"
      }
    },
    {
      "type": "Feature",
      "geometry": {
        "type": "Point",
        "coordinates": [
          -6.131956,
          36.420695
        ]
      },
      "properties": {
        "orden": 78,
        "tiempo": "1:22:00",
        "codigo": 11700123,
        "nombre": "I.E.S. Huerta del Rosario",
        "direccion": "Callejón  de los Frailes, s/n",
        "codPostal": 11130,
        "municipio": "Chiclana de la Frontera",
        "provincia": "Cadiz"
      }
    },
    {
      "type": "Feature",
      "geometry": {
        "type": "Point",
        "coordinates": [
          -6.13595,
          36.422871
        ]
      },
      "properties": {
        "orden": 79,
        "tiempo": "1:22:00",
        "codigo": 11700962,
        "nombre": "I.E.S. Fernando Quiñones",
        "direccion": "C/ Calvario, s/n",
        "codPostal": 11130,
        "municipio": "Chiclana de la Frontera",
        "provincia": "Cadiz"
      }
    },
    {
      "type": "Feature",
      "geometry": {
        "type": "Point",
        "coordinates": [
          -6.878536,
          37.648015
        ]
      },
      "properties": {
        "orden": 80,
        "tiempo": "1:22:00",
        "codigo": 21003323,
        "nombre": "I.E.S. Diego Macías",
        "direccion": "C/ Extramuros, s/n",
        "codPostal": 21300,
        "municipio": "Calañas",
        "provincia": "Huelva"
      }
    },
    {
      "type": "Feature",
      "geometry": {
        "type": "Point",
        "coordinates": [
          -6.159377,
          36.420488
        ]
      },
      "properties": {
        "orden": 81,
        "tiempo": "1:23:00",
        "codigo": 11700354,
        "nombre": "I.E.S. Ciudad de Hércules",
        "direccion": "C/ Cuba, 2",
        "codPostal": 11130,
        "municipio": "Chiclana de la Frontera",
        "provincia": "Cadiz"
      }
    },
    {
      "type": "Feature",
      "geometry": {
        "type": "Point",
        "coordinates": [
          -7.395258,
          37.216112
        ]
      },
      "properties": {
        "orden": 82,
        "tiempo": "1:24:00",
        "codigo": 21700502,
        "nombre": "I.E.S. Guadiana",
        "direccion": "C/ Doctor Severo Ochoa, s/n",
        "codPostal": 21400,
        "municipio": "Ayamonte",
        "provincia": "Huelva"
      }
    },
    {
      "type": "Feature",
      "geometry": {
        "type": "Point",
        "coordinates": [
          -6.381233,
          36.629976
        ]
      },
      "properties": {
        "orden": 83,
        "tiempo": "1:26:00",
        "codigo": 11007533,
        "nombre": "I.E.S. Arroyo Hondo",
        "direccion": "C/ Maestro  Manuel J. Casal Egea, 2",
        "codPostal": 11520,
        "municipio": "Rota",
        "provincia": "Cadiz"
      }
    },
    {
      "type": "Feature",
      "geometry": {
        "type": "Point",
        "coordinates": [
          -4.973717,
          37.099824
        ]
      },
      "properties": {
        "orden": 84,
        "tiempo": "1:28:00",
        "codigo": 41700750,
        "nombre": "I.E.S. Maestro Francisco Gallardo",
        "direccion": "Ctra. Martín de la Jara- Los Corrales, s/n",
        "codPostal": 41657,
        "municipio": "Los Corrales",
        "provincia": "Sevilla"
      }
    },
    {
      "type": "Feature",
      "geometry": {
        "type": "Point",
        "coordinates": [
          -5.816146,
          36.346903
        ]
      },
      "properties": {
        "orden": 85,
        "tiempo": "1:32:00",
        "codigo": 11700421,
        "nombre": "I.E.S. Casas Viejas",
        "direccion": "Ctra. Vejer-Benalup, s/n",
        "codPostal": 11190,
        "municipio": "Benalup-Casas Viejas",
        "provincia": "Cadiz"
      }
    },
    {
      "type": "Feature",
      "geometry": {
        "type": "Point",
        "coordinates": [
          -4.786863,
          37.872194
        ]
      },
      "properties": {
        "orden": 86,
        "tiempo": "1:36:00",
        "codigo": 14002972,
        "nombre": "I.E.S. Séneca",
        "direccion": "Avda. Menéndez Pidal, s/n",
        "codPostal": 14004,
        "municipio": "Córdoba",
        "provincia": "Cordoba"
      }
    },
    {
      "type": "Feature",
      "geometry": {
        "type": "Point",
        "coordinates": [
          -4.657662,
          37.125854
        ]
      },
      "properties": {
        "orden": 87,
        "tiempo": "1:36:00",
        "codigo": 29701131,
        "nombre": "I.E.S. Las Viñas",
        "direccion": "Avda. de América, 36",
        "codPostal": 29532,
        "municipio": "Mollina",
        "provincia": "Malaga"
      }
    },
    {
      "type": "Feature",
      "geometry": {
        "type": "Point",
        "coordinates": [
          -6.091776,
          36.280312
        ]
      },
      "properties": {
        "orden": 88,
        "tiempo": "1:37:00",
        "codigo": 11008461,
        "nombre": "I.E.S. La Atalaya",
        "direccion": "C/ Atalaya, s/n",
        "codPostal": 11140,
        "municipio": "Conil de la Frontera",
        "provincia": "Cadiz"
      }
    },
    {
      "type": "Feature",
      "geometry": {
        "type": "Point",
        "coordinates": [
          -4.796219,
          37.877021
        ]
      },
      "properties": {
        "orden": 89,
        "tiempo": "1:39:00",
        "codigo": 14700067,
        "nombre": "I.E.S. Alhaken II",
        "direccion": "C/ Manuel Fuentes Bocanegra, s/n",
        "codPostal": 14005,
        "municipio": "Córdoba",
        "provincia": "Cordoba"
      }
    },
    {
      "type": "Feature",
      "geometry": {
        "type": "Point",
        "coordinates": [
          -4.864701,
          37.044414
        ]
      },
      "properties": {
        "orden": 90,
        "tiempo": "1:39:00",
        "codigo": 29001868,
        "nombre": "I.E.S. Camilo José Cela",
        "direccion": "Avda. Familia de Pascual Duarte, 4",
        "codPostal": 29320,
        "municipio": "Campillos",
        "provincia": "Malaga"
      }
    },
    {
      "type": "Feature",
      "geometry": {
        "type": "Point",
        "coordinates": [
          -4.758062,
          37.895355
        ]
      },
      "properties": {
        "orden": 91,
        "tiempo": "1:40:00",
        "codigo": 14007180,
        "nombre": "I.E.S. Blas Infante",
        "direccion": "Plaza Platero Pedro de Bares, 31 A",
        "codPostal": 14007,
        "municipio": "Córdoba",
        "provincia": "Cordoba"
      }
    },
    {
      "type": "Feature",
      "geometry": {
        "type": "Point",
        "coordinates": [
          -4.655599,
          37.208261
        ]
      },
      "properties": {
        "orden": 92,
        "tiempo": "1:42:00",
        "codigo": 29701209,
        "nombre": "I.E.S. Jacobo Orellana Garrido",
        "direccion": "C/ Miguel Hernández, s/n",
        "codPostal": 29530,
        "municipio": "Alameda",
        "provincia": "Malaga"
      }
    },
    {
      "type": "Feature",
      "geometry": {
        "type": "Point",
        "coordinates": [
          -5.166686,
          36.748367
        ]
      },
      "properties": {
        "orden": 93,
        "tiempo": "1:45:00",
        "codigo": 29700230,
        "nombre": "I.E.S. Dr. Rodríguez Delgado",
        "direccion": "C/ Dolores Ibarruri, 2",
        "codPostal": 29400,
        "municipio": "Ronda",
        "provincia": "Malaga"
      }
    },
    {
      "type": "Feature",
      "geometry": {
        "type": "Point",
        "coordinates": [
          -4.567201,
          37.023987
        ]
      },
      "properties": {
        "orden": 94,
        "tiempo": "1:46:00",
        "codigo": 29012052,
        "nombre": "I.E.S. Los Colegiales",
        "direccion": "Paseo de los Colegiales, s/n",
        "codPostal": 29200,
        "municipio": "Antequera",
        "provincia": "Malaga"
      }
    },
    {
      "type": "Feature",
      "geometry": {
        "type": "Point",
        "coordinates": [
          -5.487655,
          36.187906
        ]
      },
      "properties": {
        "orden": 95,
        "tiempo": "1:49:00",
        "codigo": 11700561,
        "nombre": "I.E.S. Sierra Luna",
        "direccion": "Avda. de Doña Rosa García, 8",
        "codPostal": 11370,
        "municipio": "Los Barrios",
        "provincia": "Cadiz"
      }
    },
    {
      "type": "Feature",
      "geometry": {
        "type": "Point",
        "coordinates": [
          -5.4476,
          36.131471
        ]
      },
      "properties": {
        "orden": 96,
        "tiempo": "1:50:00",
        "codigo": 11700135,
        "nombre": "I.E.S. Levante",
        "direccion": "C/ Acebuchal Bajo, s/n",
        "codPostal": 11205,
        "municipio": "Algeciras",
        "provincia": "Cadiz"
      }
    },
    {
      "type": "Feature",
      "geometry": {
        "type": "Point",
        "coordinates": [
          -5.160314,
          36.742945
        ]
      },
      "properties": {
        "orden": 97,
        "tiempo": "1:50:00",
        "codigo": 29700035,
        "nombre": "I.E.S. Profesor Gonzalo Huesa",
        "direccion": "C/ San Vicente de Paul, s/n",
        "codPostal": 29400,
        "municipio": "Ronda",
        "provincia": "Malaga"
      }
    },
    {
      "type": "Feature",
      "geometry": {
        "type": "Point",
        "coordinates": [
          -5.446901,
          36.147717
        ]
      },
      "properties": {
        "orden": 98,
        "tiempo": "1:51:00",
        "codigo": 11008495,
        "nombre": "I.E.S. Torre Almirante",
        "direccion": "Otros Polígono del Rosario, s/n",
        "codPostal": 11205,
        "municipio": "Algeciras",
        "provincia": "Cadiz"
      }
    },
    {
      "type": "Feature",
      "geometry": {
        "type": "Point",
        "coordinates": [
          -5.456401,
          36.137943
        ]
      },
      "properties": {
        "orden": 99,
        "tiempo": "1:52:00",
        "codigo": 11000368,
        "nombre": "I.E.S. Isla Verde",
        "direccion": "Ctra. de Cádiz-Málaga, s/n",
        "codPostal": 11203,
        "municipio": "Algeciras",
        "provincia": "Cadiz"
      }
    },
    {
      "type": "Feature",
      "geometry": {
        "type": "Point",
        "coordinates": [
          -4.390138,
          37.096098
        ]
      },
      "properties": {
        "orden": 100,
        "tiempo": "1:54:00",
        "codigo": 29001421,
        "nombre": "I.E.S. Luis Barahona de Soto",
        "direccion": "C/ Carrera, 37",
        "codPostal": 29300,
        "municipio": "Archidona",
        "provincia": "Malaga"
      }
    },
    {
      "type": "Feature",
      "geometry": {
        "type": "Point",
        "coordinates": [
          -5.443103,
          36.115309
        ]
      },
      "properties": {
        "orden": 101,
        "tiempo": "1:57:00",
        "codigo": 11700342,
        "nombre": "I.E.S. El Getares",
        "direccion": "Ctra. Getares, s/n. Urb. Villa Rosa",
        "codPostal": 11207,
        "municipio": "Algeciras",
        "provincia": "Cadiz"
      }
    },
    {
      "type": "Feature",
      "geometry": {
        "type": "Point",
        "coordinates": [
          -4.476843,
          37.409983
        ]
      },
      "properties": {
        "orden": 102,
        "tiempo": "1:57:00",
        "codigo": 14007404,
        "nombre": "I.E.S. Juan de Aréjula",
        "direccion": "C/ Montemayor, 11",
        "codPostal": 14900,
        "municipio": "Lucena",
        "provincia": "Cordoba"
      }
    },
    {
      "type": "Feature",
      "geometry": {
        "type": "Point",
        "coordinates": [
          -4.539941,
          37.270226
        ]
      },
      "properties": {
        "orden": 103,
        "tiempo": "1:57:00",
        "codigo": 14700501,
        "nombre": "I.E.S. Don Diego de Bernuy",
        "direccion": "C/ Huelva, s/n",
        "codPostal": 14910,
        "municipio": "Benamejí",
        "provincia": "Cordoba"
      }
    },
    {
      "type": "Feature",
      "geometry": {
        "type": "Point",
        "coordinates": [
          -5.341208,
          36.619052
        ]
      },
      "properties": {
        "orden": 104,
        "tiempo": "1:59:00",
        "codigo": 29011734,
        "nombre": "I.E.S. Andrés Pérez Serrano",
        "direccion": "Avda. de la Libertad, s/n",
        "codPostal": 29380,
        "municipio": "Cortes de la Frontera",
        "provincia": "Malaga"
      }
    },
    {
      "type": "Feature",
      "geometry": {
        "type": "Point",
        "coordinates": [
          -4.433584,
          37.470039
        ]
      },
      "properties": {
        "orden": 105,
        "tiempo": "2:00:00",
        "codigo": 14000835,
        "nombre": "I.E.S. Felipe Solís Villechenous",
        "direccion": "Avda. Fuente del Río, 15",
        "codPostal": 14940,
        "municipio": "Cabra",
        "provincia": "Cordoba"
      }
    },
    {
      "type": "Feature",
      "geometry": {
        "type": "Point",
        "coordinates": [
          -4.440172,
          37.471895
        ]
      },
      "properties": {
        "orden": 106,
        "tiempo": "2:01:00",
        "codigo": 14000847,
        "nombre": "I.E.S. Aguilar y Eslava",
        "direccion": "Plaza de Aguilar y Eslava, s/n",
        "codPostal": 14940,
        "municipio": "Cabra",
        "provincia": "Cordoba"
      }
    },
    {
      "type": "Feature",
      "geometry": {
        "type": "Point",
        "coordinates": [
          -4.47099,
          37.692968
        ]
      },
      "properties": {
        "orden": 107,
        "tiempo": "2:02:00",
        "codigo": 14700717,
        "nombre": "I.E.S. Ategua",
        "direccion": "C/ Isabel García Regio, 2",
        "codPostal": 14840,
        "municipio": "Castro del Río",
        "provincia": "Cordoba"
      }
    },
    {
      "type": "Feature",
      "geometry": {
        "type": "Point",
        "coordinates": [
          -4.367323,
          37.320192
        ]
      },
      "properties": {
        "orden": 108,
        "tiempo": "2:06:00",
        "codigo": 14700468,
        "nombre": "I.E.S. Nuevo Scala",
        "direccion": "C/ Junquillo, s/n",
        "codPostal": 14960,
        "municipio": "Rute",
        "provincia": "Cordoba"
      }
    },
    {
      "type": "Feature",
      "geometry": {
        "type": "Point",
        "coordinates": [
          -5.241455,
          36.366866
        ]
      },
      "properties": {
        "orden": 109,
        "tiempo": "2:10:00",
        "codigo": 29700722,
        "nombre": "I.E.S. Las Viñas",
        "direccion": "Ctra. del Peñoncillo, s/n",
        "codPostal": 29692,
        "municipio": "Manilva",
        "provincia": "Malaga"
      }
    },
    {
      "type": "Feature",
      "geometry": {
        "type": "Point",
        "coordinates": [
          -4.534225,
          36.932799
        ]
      },
      "properties": {
        "orden": 110,
        "tiempo": "2:11:00",
        "codigo": 29701179,
        "nombre": "I.E.S. Manuel Romero",
        "direccion": "Otros Carril del Ciprés, s/n",
        "codPostal": 29230,
        "municipio": "Villanueva de la Concepción",
        "provincia": "Malaga"
      }
    },
    {
      "type": "Feature",
      "geometry": {
        "type": "Point",
        "coordinates": [
          -4.139593,
          37.17468
        ]
      },
      "properties": {
        "orden": 111,
        "tiempo": "2:12:00",
        "codigo": 18005992,
        "nombre": "I.E.S. Moraima",
        "direccion": "Ctra. de Priego, s/n",
        "codPostal": 18300,
        "municipio": "Loja",
        "provincia": "Granada"
      }
    },
    {
      "type": "Feature",
      "geometry": {
        "type": "Point",
        "coordinates": [
          -5.271721,
          38.307593
        ]
      },
      "properties": {
        "orden": 112,
        "tiempo": "2:13:00",
        "codigo": 14005501,
        "nombre": "I.E.S. Alto Guadiato",
        "direccion": "Otros Ronda del Guadiato, s/n",
        "codPostal": 14200,
        "municipio": "Peñarroya-Pueblonuevo",
        "provincia": "Cordoba"
      }
    },
    {
      "type": "Feature",
      "geometry": {
        "type": "Point",
        "coordinates": [
          -4.212227,
          37.44115
        ]
      },
      "properties": {
        "orden": 113,
        "tiempo": "2:13:00",
        "codigo": 14005912,
        "nombre": "I.E.S. Fernando III El Santo",
        "direccion": "Avda. de España, 83",
        "codPostal": 14800,
        "municipio": "Priego de Córdoba",
        "provincia": "Cordoba"
      }
    },
    {
      "type": "Feature",
      "geometry": {
        "type": "Point",
        "coordinates": [
          -4.213858,
          37.441167
        ]
      },
      "properties": {
        "orden": 114,
        "tiempo": "2:13:00",
        "codigo": 14005936,
        "nombre": "I.E.S. Álvarez Cubero",
        "direccion": "Avda. Niceto Alcalá-Zamora, s/n",
        "codPostal": 14800,
        "municipio": "Priego de Córdoba",
        "provincia": "Cordoba"
      }
    },
    {
      "type": "Feature",
      "geometry": {
        "type": "Point",
        "coordinates": [
          -4.423118,
          36.74755
        ]
      },
      "properties": {
        "orden": 115,
        "tiempo": "2:13:00",
        "codigo": 29005965,
        "nombre": "I.E.S. Sierra Bermeja",
        "direccion": "Avda. Ramón y Cajal, 113",
        "codPostal": 29014,
        "municipio": "Málaga",
        "provincia": "Malaga"
      }
    },
    {
      "type": "Feature",
      "geometry": {
        "type": "Point",
        "coordinates": [
          -4.482036,
          36.731751
        ]
      },
      "properties": {
        "orden": 116,
        "tiempo": "2:13:00",
        "codigo": 29700400,
        "nombre": "I.E.S. Puerto de la Torre",
        "direccion": "C/ Cristo de los Milagros, 25",
        "codPostal": 29190,
        "municipio": "Málaga",
        "provincia": "Malaga"
      }
    },
    {
      "type": "Feature",
      "geometry": {
        "type": "Point",
        "coordinates": [
          -4.481389,
          36.724987
        ]
      },
      "properties": {
        "orden": 117,
        "tiempo": "2:14:00",
        "codigo": 29701064,
        "nombre": "I.E.S. Torre Atalaya",
        "direccion": "Avda. Navarro Ledesma, 170",
        "codPostal": 29010,
        "municipio": "Málaga",
        "provincia": "Malaga"
      }
    },
    {
      "type": "Feature",
      "geometry": {
        "type": "Point",
        "coordinates": [
          -5.154551,
          36.429673
        ]
      },
      "properties": {
        "orden": 118,
        "tiempo": "2:16:00",
        "codigo": 29002885,
        "nombre": "I.E.S. Monterroso",
        "direccion": "Avda. Santo Tomás de Aquino, s/n",
        "codPostal": 29680,
        "municipio": "Estepona",
        "provincia": "Malaga"
      }
    },
    {
      "type": "Feature",
      "geometry": {
        "type": "Point",
        "coordinates": [
          -5.609897,
          36.015672
        ]
      },
      "properties": {
        "orden": 119,
        "tiempo": "2:16:00",
        "codigo": 11700731,
        "nombre": "I.E.S. Baelo Claudia",
        "direccion": "C/ Los Lances, s/n",
        "codPostal": 11380,
        "municipio": "Tarifa",
        "provincia": "Cadiz"
      }
    },
    {
      "type": "Feature",
      "geometry": {
        "type": "Point",
        "coordinates": [
          -4.550292,
          36.665485
        ]
      },
      "properties": {
        "orden": 120,
        "tiempo": "2:17:00",
        "codigo": 29000062,
        "nombre": "I.E.S. Capellanía",
        "direccion": "C/ Zarzuela, s/n",
        "codPostal": 29130,
        "municipio": "Alhaurín de la Torre",
        "provincia": "Malaga"
      }
    }
  ]
}